[
    {
        "latitude": "45.04",
        "longitude": "7.42",
        "geo": "45.04, 7.42",
        "city": "Turin",
        "province_icon": "https://upload.wikimedia.org/wikipedia/commons/thumb/b/b9/Flag_of_Piedmont.svg/23px-Flag_of_Piedmont.svg.png",
        "province": "Piedmont",
        "country_icon": "https://upload.wikimedia.org/wikipedia/en/thumb/0/03/Flag_of_Italy.svg/23px-Flag_of_Italy.svg.png",
        "country": "Italy"
    },
    {
        "latitude": "8.291",
        "longitude": "76.571",
        "geo": "8.29, 76.57a",
        "city": "Trivandrum",
        "province_icon": "",
        "province": "Kerala",
        "country_icon": "https://upload.wikimedia.org/wikipedia/en/thumb/4/41/Flag_of_India.svg/23px-Flag_of_India.svg.png",
        "country": "India"
    },
    {
        "latitude": "16.471",
        "longitude": "3.011",
        "geo": "16.47, 3.01a",
        "city": "Timbuktu",
        "province_icon": "",
        "province": "",
        "country_icon": "https://upload.wikimedia.org/wikipedia/commons/thumb/9/92/Flag_of_Mali.svg/23px-Flag_of_Mali.svg.png",
        "country": "Mali"
    },
    {
        "latitude": "46.12",
        "longitude": "6.09",
        "geo": "46.12, 6.09",
        "city": "Geneva",
        "province_icon": "",
        "province": "",
        "country_icon": "https://upload.wikimedia.org/wikipedia/commons/thumb/f/f3/Flag_of_Switzerland.svg/16px-Flag_of_Switzerland.svg.png",
        "country": "Switzerland"
    },
    {
        "latitude": "24.28",
        "longitude": "54.22",
        "geo": "24.28, 54.22",
        "city": "Abu Dhabi",
        "province_icon": "",
        "province": "",
        "country_icon": "https://upload.wikimedia.org/wikipedia/commons/thumb/c/cb/Flag_of_the_United_Arab_Emirates.svg/23px-Flag_of_the_United_Arab_Emirates.svg.png",
        "country": "United Arab Emirates"
    }
]