[
    {
        "latitude": "23.23",
        "longitude": "150.31",
        "geo": "23.23, 150.31",
        "city": "Rockhampton",
        "province_icon": "https://upload.wikimedia.org/wikipedia/commons/thumb/0/04/Flag_of_Queensland.svg/23px-Flag_of_Queensland.svg.png",
        "province": "Queensland",
        "country_icon": "https://upload.wikimedia.org/wikipedia/en/thumb/b/b9/Flag_of_Australia.svg/23px-Flag_of_Australia.svg.png",
        "country": "Australia"
    },
    {
        "latitude": "46.49",
        "longitude": "71.13",
        "geo": "46.49, 71.13",
        "city": "Quebec City",
        "province_icon": "https://upload.wikimedia.org/wikipedia/commons/thumb/5/5f/Flag_of_Quebec.svg/23px-Flag_of_Quebec.svg.png",
        "province": "Quebec",
        "country_icon": "https://upload.wikimedia.org/wikipedia/en/thumb/c/cf/Flag_of_Canada.svg/23px-Flag_of_Canada.svg.png",
        "country": "Canada"
    },
    {
        "latitude": "9.331",
        "longitude": "44.41",
        "geo": "9.33, 44.4a",
        "city": "Hargeisa",
        "province_icon": "https://upload.wikimedia.org/wikipedia/commons/thumb/4/4d/Flag_of_Somaliland.svg/23px-Flag_of_Somaliland.svg.png",
        "province": "Somaliland",
        "country_icon": "https://upload.wikimedia.org/wikipedia/commons/thumb/a/a0/Flag_of_Somalia.svg/23px-Flag_of_Somalia.svg.png",
        "country": "Somalia"
    },
    {
        "latitude": "38.45",
        "longitude": "72.40",
        "geo": "38.45, 72.40",
        "city": "Temuco",
        "province_icon": "",
        "province": "",
        "country_icon": "https://upload.wikimedia.org/wikipedia/commons/thumb/7/78/Flag_of_Chile.svg/23px-Flag_of_Chile.svg.png",
        "country": "Chile"
    },
    {
        "latitude": "15.391",
        "longitude": "32.291",
        "geo": "15.39, 32.29a",
        "city": "Omdurman",
        "province_icon": "",
        "province": "",
        "country_icon": "https://upload.wikimedia.org/wikipedia/commons/thumb/0/01/Flag_of_Sudan.svg/23px-Flag_of_Sudan.svg.png",
        "country": "Sudan"
    }
]