[
    {
        "latitude": "35.07",
        "longitude": "106.37",
        "geo": "35.07, 106.37",
        "city": "Albuquerque",
        "province_icon": "https://upload.wikimedia.org/wikipedia/commons/thumb/c/c3/Flag_of_New_Mexico.svg/23px-Flag_of_New_Mexico.svg.png",
        "province": "New Mexico",
        "country_icon": "https://upload.wikimedia.org/wikipedia/en/thumb/a/a4/Flag_of_the_United_States.svg/23px-Flag_of_the_United_States.svg.png",
        "country": "United States"
    },
    {
        "latitude": "40.24",
        "longitude": "3.41",
        "geo": "40.24, 3.41",
        "city": "Madrid",
        "province_icon": "https://upload.wikimedia.org/wikipedia/commons/thumb/9/9c/Flag_of_the_Community_of_Madrid.svg/23px-Flag_of_the_Community_of_Madrid.svg.png",
        "province": "Madrid",
        "country_icon": "https://upload.wikimedia.org/wikipedia/en/thumb/9/9a/Flag_of_Spain.svg/23px-Flag_of_Spain.svg.png",
        "country": "Spain"
    },
    {
        "latitude": "25.15",
        "longitude": "55.18",
        "geo": "25.15, 55.18",
        "city": "Dubai",
        "province_icon": "",
        "province": "",
        "country_icon": "https://upload.wikimedia.org/wikipedia/commons/thumb/c/cb/Flag_of_the_United_Arab_Emirates.svg/23px-Flag_of_the_United_Arab_Emirates.svg.png",
        "country": "United Arab Emirates"
    },
    {
        "latitude": "53.01",
        "longitude": "158.39",
        "geo": "53.01, 158.39",
        "city": "Petropavlovsk-Kamchatsky",
        "province_icon": "",
        "province": "Kamchatka Krai",
        "country_icon": "https://upload.wikimedia.org/wikipedia/en/thumb/f/f3/Flag_of_Russia.svg/23px-Flag_of_Russia.svg.png",
        "country": "Russia"
    },
    {
        "latitude": "14.37",
        "longitude": "90.32",
        "geo": "14.37, 90.32",
        "city": "Guatemala City",
        "province_icon": "",
        "province": "",
        "country_icon": "https://upload.wikimedia.org/wikipedia/commons/thumb/e/ec/Flag_of_Guatemala.svg/23px-Flag_of_Guatemala.svg.png",
        "country": "Guatemala"
    }
]